iri,modified,batch,number_in_batch,number_in_category_3,site_name_zh-Hans,site_name2_zh-Hans,geonames_id,getty_togn_id,site_name_en,site_date,location,site_name_en_extracted,site_name_Geoname,geonames_id2_location,getty_togn_id2_location,building_name_en_extracted,building_name_en_verbatim,building_name_zh-Hans,building_date,decimal_latitude,decimal_longitude,verbatim_latitude,verbatim_longitude,significance,most_recent_doc,notes,ct_angled_bracket_arm,corner_angled_bracket_arm,ic_angled_bracket_arm,ic_match_ct,number_of_ic_in_central_bay,pubaifang,1st_step_touxin,1st_step_jixin,cejiao,pizhu_xiaang,qinmian_xiaang,pizhu-qinmian_xiaang,number_of_xiaang,ang-shaped_shuatou,beveled_linggong,chamfered_linggong
http://art.vanderbilt.edu/Damiao_Feilaidian,,3,114,62,大庙飞来殿,大庙飞来殿,,,*Damiao_Feilaidian,"宋至元: 993 or 1327 see: ZGMSCD, p. 922",四川省峨眉县,Damiao,,,,Feilaidian,,,993-1327,,,,,animal motifs on bracketing: likely a Yuan structure...,*,,,,,,,,,,,,,,,,,
http://art.vanderbilt.edu/Yunyansi,,3,115,63,云岩寺,云岩寺,,,*Yunyansi,宋至清,四川省江油县,Yunyansi,,,,,,,,,,,,song revolving sutra repository with angled bracket arms,*,,,,,,,,,,,,,,,,,
http://art.vanderbilt.edu/Guangdesi,,6,703,406,广德寺,广德寺,,,*Guangdesi,宋至清,四川省遂宁市,Guangdesi,,,,,,,,,,,,"no date information in ZGMSCD, 910; Song stele; see: http://baike.baidu.com/view/113543.htm",n/a?,,,,,,,,,,,,,,,,,
http://art.vanderbilt.edu/Qufu_Kongmiao,,1,99,52,曲阜孔庙,曲阜孔庙及孔府,9072554,,Qufu_Kongmiao,金至清,山东省曲阜县,Qufu,"Temple of Confucius,",,8631848,Kongmiao,Jin_West_Pavilion,,1195,35.5955833,116.98405,,,,*,,0,0,0,1,2,1,0,1,1,0,1,0,1,0,0,1
http://art.vanderbilt.edu/Daimiao,,3,125,73,岱庙*,岱庙,,,*Daimiao,宋至清,山东省泰安市,Daimiao,,,,,,,,,,,,"originally built in 1009, modified numerous times. Wall paintings in Song style=ZGMSCD, 626",*,,,,,,,,,,,,,,,,,
http://art.vanderbilt.edu/Lingyansi_Pizhita,,2,21,6,灵岩寺,灵岩寺,1803429,8625249,Lingyansi_Pizhita,唐至清,山东省长清县,Lingyansi,,,,Pizhita,,辟支塔,1057,36.3632666,116.977683,,,Song dynasty; corner bracket sets on front facade,fall 2009,for date see: zgmscd 585,1,1,1,0,3,1,0,1,？,0,0,0,0,0,0,1
http://art.vanderbilt.edu/Wanrong_Jiwangmiao,,5,224,30,万荣稷王庙,万荣稷王庙,,,*Wanrong_Jiwangmiao,金,山西省万荣县,Wanrong,,,,Jiwangmiao,,,,,,,,,1998,,,,,,,,,,,,,,,,,
http://art.vanderbilt.edu/Xining_Shoushengsi,,6,379,82,乡宁寿圣寺,乡宁寿圣寺,,,*Xining_Shoushengsi,金至明,山西省乡宁县,Xining,,,,Shoushengsi,,,,,,,,"Main Hall Song?, see see 中國 文物 地圖集 山西分冊, 下, 978",*,,,,,,,,,,,,,,,,,
http://art.vanderbilt.edu/Yanqingsi,,6,381,84,延庆寺,延庆寺,,,Yanqingsi,宋至清,山西省五台县,Yanqingsi,,1790954,8675821,,Main Hall,,1115-1234,38.7483333,113.0625,38˚ 44.90' N (Magellan),113˚ 03.75' E,"中國 文物 地圖集 山西分冊,中 580",1999?,,0,0,1,0,1,1,0,1,1,0,0,1,1,1,1,
http://art.vanderbilt.edu/Nanchansi,,1,79,32,南禅寺,南禅寺,,,Nanchansi,唐,山西省五台县,Nanchansi,,,,,,大殿,782,38.7013333,113.114,38˚ 42.08' N (Magellan),113˚ 06.84 E,early timber architecture,1999,,0,0,0,0,0,0,1,0,1,0,0,0,0,0,0,0
http://art.vanderbilt.edu/Foguangsi_Dongdadian,,1,80,33,佛光寺,佛光寺東大殿,,,Foguangsi_Dongdadian,唐至清,山西省五台县,Foguangsi,,,,Dongdadian,,東大殿,857,38.8695,113.387333,38˚ 52.14' N (Magellan),113˚ 23.22 E,857 early diantang,1999,,0,0,0,0,1,0,1,0,1,1,0,0,2,0,0,1
http://art.vanderbilt.edu/Foguangsi_Wenshudian,,1,80,33,佛光寺,佛光寺文殊殿,,,Foguangsi_Wenshudian,唐至清,山西省五台县,Foguangsi,,,,Wenshudian,,文殊殿,1137,38.8695,113.387333,38˚ 52.14' N (Magellan),113˚ 23.22 E,"1137 early Jin dynasty, use of xiegong in central bay; cloud-shaped arm  instead of guazigong makes ct brackt sets jixin; lingong single timber across façade but made to look beveled",1999,lat/long from Dongdadian,0,0,1,0,1,1,1,1,,0,0,1,1,1,1,0
http://art.vanderbilt.edu/Sanjunmiao,,5,261,67,三峻庙,三峻庙,,,Sanjunmiao,金至清,山西省壶关县,Sanjunmiao,,,,,,,,36.03716667,113.6121667,36˚ 2.23'N (Garmin),113˚ 9.73'E,"Main Hall from 1175, see; 中國 文物 地圖集 山西分冊, 中, 336",*,,,,,,,,,,,,,,,,,
http://art.vanderbilt.edu/Shanhuasi_Tianwangdian,,1,88,41,善化寺,善化寺 天王殿,,,Shanhuasi_Tianwangdian,"辽,金; rebuilt 1128-1143",山西省大同市,Shanhuasi,,2037794,8208820,Tianwangdian,,天王殿,1128-1143,40.0854,113.293533,40˚ 05.124' N (Garmin),113˚ 17.612 E ',Shanmen--天會六－皇統三 (1128-1143),2009,,0,0,0,1,2,1,0,1,,0,1,0,1,0,0,1
http://art.vanderbilt.edu/Shanhuasi_Sanshengdian,,1,88,41,善化寺,善化寺 三聖殿,,,Shanhuasi_Sanshengdian,"辽,金; rebuilt 1128-1143",山西省大同市,Shanhuasi,,,,Sanshengdian,,三聖殿,1128-1143,40.0857166,113.29345,40˚ 05.143’ N,113˚ 17.607' E,"天會六－皇統三 (1128-1143, linggong for angled bracket arm is angled",,,0,0,1,0,2,1,0,1,,0,1,0,2,0,1,1
http://art.vanderbilt.edu/Shanhuasi_Puxiange,,1,88,41,善化寺,善化寺普賢閣,,,Shanhuasi_Puxiange,"辽,金; rebuilt 1128-1143",山西省大同市,Shanhuasi,,,,Puxiange,,普賢閣,1154,40.0859333,113.293333,40˚ 05.156' N,113˚ 17.600' E,1154; column-top match ic on lower eaves,,,0,1,1,1,1,1,0,1,,0,0,0,0,0,0,1
http://art.vanderbilt.edu/Shanhuasi_Daxiongbaodian_,,1,88,41,善化寺,,,,Shanhuasi_Daxiongbaodian_,"辽,金; rebuilt 1128-1143",山西省大同市,Shanhuasi,,,,Daxiongbaodian,,大雄寶殿,1000-1143,40.0862833,113.293166,40˚ 05.177 N,113˚ 17.590' E,遼; renovated (重修) during 1128-1143 reconstruction， angled bracket arme on e and w; linggong on these bevelled backwards,,,0,0,1,0,1,1,0,1,,0,0,0,0,0,1,1
http://art.vanderbilt.edu/Huayansi_Xiasi_Sutra_Repository,,1,91,44,华严寺,华严寺 下寺薄伽教藏殿,,,Huayansi_Xiasi_Sutra_Repository,辽、金、清,山西省大同市,Huayansi,,2037794,8208820,Xiasi Sutra Repository,,下寺薄伽教藏殿,1038,40.0905166,113.288533,40˚ 05.431' N (Garmin),113˚ 17.312' E,1038,,,0,1,0,0,1,1,0,1,,0,0,0,0,0,0,1
http://art.vanderbilt.edu/Huayansi_Shangsi_Daxiongbaodian,,1,91,44,华严寺,华严寺上寺大雄寶殿,,,Huayansi_Shangsi_Daxiongbaodian,辽、金、清,山西省大同市,Huayansi,,,,Shangsi Daxiongbaodian,,上寺大雄寶殿,1140,40.09125,113.287433,40˚ 05.475' N (Garmin),113˚ 17.246' E,1140,2009,,0,1,1,0,1,1,0,1,,0,0,0,0,0,0,1
http://art.vanderbilt.edu/Jinci_Shengmudian,,1,85,38,晋祠,晋祠聖母殿,,,Jinci_Shengmudian,宋-20th century,山西省太原市,Jinci,,,,Shengmudian,,聖母殿,1038-1087,37.708727,112.434575,37˚ 42.25' E  N (Garmin),112˚ 26.43' E,Shengmudian 1038-1087-local and trans-local types of bracketing,2006?,,0,0,0,0,1,1,0,1,1,0,1,1,1,1,0,1
http://art.vanderbilt.edu/Jinci_Xiandian,,1,85,38,晋祠,晋祠獻殿,,,Jinci_Xiandian,宋-20th century,山西省太原市,Jinci,,,,Xiandian,,獻殿,1168,37.7085556,112.435,37˚ 43.99' N (Garmin),112˚ 33.70' E,Jin 1168-local and trans-local types of bracketing,2006?,,0,0,0,0,1,1,0,1,1,0,1,1,1,1,0,1
http://art.vanderbilt.edu/Anchansi,,6,360,63,安禅寺,安禅寺,,,Anchansi,宋至明,山西省太谷县,Anchansi,,,,,,藏经殿,960-1125,37.42453333,112.5473333,37˚ 25.472 (Garmin),112˚ 32.840,"sutra repository Song, compare to Jidumiao qingong",2010,,,,,,,,,,,,,,,,,
http://art.vanderbilt.edu/Zhenshengsi,,6,388,Ⅲ－91,真圣寺,真圣寺,,,*Zhenshengsi,金至清,山西省太谷县: 太谷县城东40公里的范村镇蚍蜉村,Zhenshengsi,,,,,,,1157,,,,,Main Hall from Jin; 1157. See: http://www.huaxia.com/zhsx/sxsy/wwzy/12/1260249.html,*,,,,,,,,,,,,,,,,,
http://art.vanderbilt.edu/Dingxiang_Guanwangmiao,,6,368,Ⅲ－71,定襄关王庙,定襄关王庙,,,*Dingxiang_Guanwangmiao,宋,山西省定襄县,Dingxiang,,,,Guanwangmiao,,,1208,,,,,"1208 關王殿； see: 中國 文物 地圖集 山西分冊, 中, 571-572 ",*,,,,,,,,,,,,,,,,,
http://art.vanderbilt.edu/Dingxiang_Hongfusi,,5,251,57,洪福寺,洪福寺正殿,,,Dingxiang_Hongfusi,金?,山西省定襄县,Dingxiang,,,,Hongfusi,,,,38.62949167,113.0524611,"38°37'46.17""(google earth-satellite)","113°03'08.86""",stele inscription documenting repair in the Tianhui period (1123-1138) see: 中國 文物 地圖集 山西分冊，中，571,1998,,0,0,1,0,1,1,0,0,,0,0,1,1,1,1,0
http://art.vanderbilt.edu/Puguangsi,,6,358,Ⅲ－61,普光寺,普光寺,,,*Puguangsi,宋至清,山西省寿阳县,Puguangsi,,,,,,,,,,,,"main hall from Song, hip-gable converted to gable",*,,,,,,,,,,,,,,,,,
http://art.vanderbilt.edu/Zhenguosi_10000_Buddhas_Hall,,3,111,59,镇国寺,镇国寺,,,Zhenguosi_10000_Buddhas_Hall,五代至清,山西省平遥县,Zhenguosi,,1798635,8619493,10000 Buddhas Hall,"10,000 Buddhas Hall 963",,963,37.25298611,112.248006,"37˚ 15' 10.75"" N (google earth-Xu, no satellite)",112˚ 14’52。82”E,continuation of style at Foguangsi into 10th cen.,1997,,0,0,0,0,1,0,1,0,1,1,0,0,2,0,0,1
http://art.vanderbilt.edu/Cixiangsi_Main_Hall,,5,239,45,慈相寺,慈相寺,,,Cixiangsi_Main_Hall,北宋至清,山西省平遥县,Cixiangsi,,,,Main Hall,Main Hall,,1125-1234,37.23389444,112.2438056,"37˚14' 02.02"" N (fuzzy satellite following 赝能隙 photo)","112˚ 14' 37.72""","main hall jin, pagoda Song, bad photos so data needs confirmation",1997,,0,0,0,1,1,1,0,1,,0,1,0,1,0,?,?
http://art.vanderbilt.edu/Pingyao_Wenmiao,,5,240,46,平遥文庙,平遥文庙,,,Pingyao_Wenmiao,金至清,山西省平遥县,Pingyao,,,,Wenmiao,Dachengdian,,,37.195,112.19,37˚ 11.7' N (Magellan),112˚ 11.4' E,first step is made jixin with a cloud-shaped bracket arm,"1997, 2004",,0,0,0,0,0,1,0,1,,0,1,0,2,0,0,1
http://art.vanderbilt.edu/Tiantaian,,3,107,55,天台庵,天台庵,,,Tiantaian,唐,山西省平顺县,Tiantaian,,,,,Main Hall,,618-907,36.38344,113.3922133,"36˚ 23' 00.64"" N (google earth Cui Jinze)","113˚ 23' 53.28"" E",probably late Tang based on style,1997,,0,0,0,0,1,0,1,0,,0,0,0,0,0,0,0
http://art.vanderbilt.edu/Dayunyuan,,3,112,60,大云院,大云院,,,Dayunyuan,五代至清,山西省平顺县,Dayunyuan,,,,,Great Buddha Hall,,940,36.35619167,113.4353267,"36˚ 21' 37.15"" N ( google earth-Cui Junze, no satellite)","113˚ 26' 11.96"" E",10th cen compare to Jidumiao Qingong,1997,,0,0,0,1,1,1,1,0,,0,0,0,0,0,0,1
http://art.vanderbilt.edu/Longmensi_Tianwandian,,4,92,14,龙门寺,龙门寺 Tianwangdian,,,Longmensi_Tianwandian,五代－清,山西省平顺县,Longmensi,,,,Tianwandian,Tianwangdian,,1125-1234,36.3896666,113.622666,36˚ 23.38' N (Magellan),113˚ 37.36' E,Jin dynasty with fan brackets,1999,,0,0,1,0,1,1,0,1,1,0,1,0,1,0,1,0
http://art.vanderbilt.edu/Longmensi_West_Side_Hall,,4,92,14,龙门寺,龙门寺 West Side Hall,,,Longmensi_West_Side_Hall,五代－清,山西省平顺县,Longmensi,,,,West Side Hall,West Side Hall,,925,36.387495,113.6201617,"36˚ 23' 24.97"" N (google earth-satellite)","113˚ 37' 20.97"" E ",925: earliest subsidiary building,,,0,0,0,0,0,0,1,0,,0,0,0,0,0,0,1
http://art.vanderbilt.edu/Longmensi_Daxiongbaodian,,4,92,14,龙门寺,龙门寺 Daxiongbaodian,,,Longmensi_Daxiongbaodian,五代－清,山西省平顺县,Longmensi,,,,Daxiongbaodian,Daxiongbaodian,,1098,36.38750833,113.620255,"36˚ 23' 25.05"" N (google earth-satellite)","113˚ 37'21.53 ""E",Song dynasty--eleventh century typical of Shangdang,,,0,0,0,0,0,1,0,1,1,0,0,1,1,1,1,0
http://art.vanderbilt.edu/Fotousi_Main_Hall,,6,366,69,佛头寺,佛头寺,,,Fotousi_Main_Hall,宋,山西省平顺县,Fotousi,,,,Main Hall,Great Hall,,,36.3581667,113.5761333,36˚ 21.490' (Garmin),113˚ 34.568',"Great Hall Song-Jin structure; see: 中國文物地圖集山西分冊, 中, 305 ",2010,,,,,,,,,,,,,,,,,
http://art.vanderbilt.edu/Chunhuasi_Main_Hall,,5,236,42,淳化寺,淳化寺,,,Chunhuasi_Main_Hall,金,山西省平顺县,Chunhuasi,,,,Main Hall,Great Hall,,,36.3532333,113.5862,36˚ 21.194'N (Garmin),113˚ 35.172',,2010,,,,,,,,,,,,,,,,,
http://art.vanderbilt.edu/Jiutian_Shengmumiao,,5,238,44,九天圣母庙,九天圣母庙,,,Jiutian_Shengmumiao,北宋至清,山西省平顺县,Jiutian,,,,Shengmumiao,,,,36.22523333,113.3374167,36 13.514' (Garmin),113˚ 20.245',,2010,,,,,,,,,,,,,,,,,
http://art.vanderbilt.edu/Huilongsi,,6,393,96,回龙寺,回龙寺,,,*Huilongsi,金,山西省平顺县； 平顺县阳高乡侯壁村,Huilongsi,,,,,,,,,,,,Main Hall Jin; see: http://www.sxcr.gov.cn/wmsx/show.php?itemid=1100,*,,,,,,,,,,,,,,,,,
http://art.vanderbilt.edu/Fogongsi_Timber_Pagoda,,1,71,24,佛宫寺释迦塔（应县木塔）,佛宫寺释迦塔（应县木塔）,,,Fogongsi_Timber_Pagoda,辽,山西省应县,Fogongsi,,,,Timber Pagoda,Pagoda,,1056-1095,39.5650166,113.1817,39˚ 33.901' N (Garmin),113˚ 10.902 E,"northern pagodas and development of xiegong;pingzuo bracket sets jixin on first step, eaves touxin ",2009,,1,1,1,0,1,1,1,1,1,1,0,0,2,0,0,1
http://art.vanderbilt.edu/Jingtusi,,6,398,101,净土寺,净土寺,,,Jingtusi,金,山西省应县,Jingtusi,,,,,Daxiongbaodian,,,39.5665166,113.1876,39˚ 33.997' N (Garmin),113˚ 11.256˚ E,,2009,,0,0,0,1,2,1,0,1,,0,1,0,1,0,0,1
http://art.vanderbilt.edu/Jindongsi,,6,359,62,金洞寺,金洞寺,,,*Jindongsi,宋至清,山西省忻州市,Jindongsi,,,,,,轉角殿,宋,,,,,,1999,,0,0,0,0,0,1,1,0,？,1,0,0,1,1,0,1
http://art.vanderbilt.edu/Zetianmiao,,4,100,22,则天庙,则天庙,,,Zetianmiao,金,山西省文水县,Zetianmiao,,,,,"northeast of Wenshui, Shanxi",,,37.47303833,112.0361283,"37°28'38.23""(google earth-satellite， zetsubouphoto","112°02'16.77""",,1999,,0,0,0,0,0,1,1,1,？,0,0,1,1,1,0,1
http://art.vanderbilt.edu/Baitaisi_Shijiadian,,6,372,75,白台寺,白台寺,,,Baitaisi_Shijiadian,金至清,山西省新绛县,Baitaisi,,,,Shijiadian,"Gujiaozhen, Guangmacun",,1190-1196,35.66366667,111.0694,35˚ 39.820' (garmin),111˚ 4.164',"Shijiadian from Jin Mingchang period (1190-1196) see: 中國 文物 地圖集山西分冊, 下, 1099 ",*,,,,,,,,,,,,,,,,,
http://art.vanderbilt.edu/Qingliansi_Main_Hall,,3,110,58,青莲寺,青莲寺 Main Hall,,,Qingliansi_Main_Hall,唐至清,山西省晋城市,Qingliansi,,,,Main Hall,Main Hall Song,,,35.45525666,112.98687,"35˚ 27' 31.54"" N (google earth-satellite)","112˚ 59' 21.22"" E",a regional style in the 11th century,1997,,0,0,0,0,0,1,0,1,1,0,0,1,1,1,0,1
http://art.vanderbilt.edu/Qingliansi_Sutra_Repository,,3,110,58,青莲寺,青莲寺 Sutra Repository,,,Qingliansi_Sutra_Repository,唐至清,山西省晋城市,Qingliansi,,,,Sutra Repository,Sutra Repository Song w/ Qing modification,,,35.45511,112.9869033,"35˚ 27' 30.66"" N (google earth-satellite)","112˚ 59' 21.42"" E ",lower story first step jixin--part of later modification?,,,0,0,0,0,1,1,1,1,?,0,0,?,1,0,,
http://art.vanderbilt.edu/Yuhuangmiao_Back_Hall,,3,113,61,玉皇庙,玉皇庙 Back Hall,,,Yuhuangmiao_Back_Hall,宋至清,山西省晋城市,Yuhuangmiao,,,,Back Hall,Back Hall 1076,,1076,35.54693333,112.93665,35˚ 32' 34.51 N (google earth),"112˚ 56' 32.81"" E","back hall late 11th century, bracketing style similar to SMD",,,0,0,0,0,1,1,0,1,,,,,,,,
http://art.vanderbilt.edu/Jincheng_Erxianmiao,,4,97,19,晋城二仙庙,晋城二仙庙,,,Jincheng_Erxianmiao,宋,山西省晋城市,Jincheng,,,,Erxianmiao,Main Hall,,1107-1117,35.496,112.9725,35˚ 29.76' N (Magellan),112˚ 58.35' E,"touxin on corner, jixin on frt facade",2004,,0,0,0,0,0,1,1,1,1,0,1,0,1,1,1,0
http://art.vanderbilt.edu/Dabeiyuan_Guodian,,5,242,48,大悲院,大悲院,,,Dabeiyuan_Guodian,宋、金,山西省曲沃县,Dabeiyuan,,,,Guodian,Guodian,,1180,35.73436667,111.5450667,35˚ 44.602 (Garmin),111˚ 32.704,,2010,,,,,,,,,,,,,,,,,
http://art.vanderbilt.edu/Chongfusi_Mituodian,,3,117,65,崇福寺弥陀殿,崇福寺,,,Chongfusi_Mituodian,金,山西省朔县,Chongfusi,,,,Mituodian,Amitabha Hall from 1143; Guanyin Hall likely from same time,,1143,39.31522222,112.432347,"39˚ 18' 54.80"" N (google earth-fuzzy satellite)","112˚ 25' 56.45"" E",celebration of angled bracket arm variety; angled bracket arm in back central bay,1998,,1,1,0,1,1,1,0,1,1,0,0,1,2,1,1,0
http://art.vanderbilt.edu/Chongfusi_Guanyindian,,3,117,65,崇福寺观音殿,崇福寺,,,Chongfusi_Guanyindian,金,山西省朔县,Chongfusi,,,,Guanyindian,Amitabha Hall from 1143; Guanyin Hall likely from same time,,1143,39.31522222,112.432347,"39˚ 18' 54.80"" N (google earth-fuzzy satellite)","112˚ 25' 56.45"" E",celebration of angled bracket arm variety,1998,GIS for site only,0,0,0,0,2,1,0,1,1,0,0,1,1,1,0,1
http://art.vanderbilt.edu/Fuyangsi,,6,385,88,福祥寺,福祥寺,,,Fuyangsi,金至清,山西省榆社县,Fuyangsi,,,,,,,,,,,,"Daxiongbaodian Jin: see 中國 文物 地圖集 下, 718.",*,,,,,,,,,,,,,,,,,
http://art.vanderbilt.edu/Hongjiyuan,,5,252,58,洪济院,洪济院,,,Hongjiyuan,金至清,山西省武乡县,Hongjiyuan,,,,,Main Hall (Jin),,,36.9830166,112.66555,36˚ 58.981 N (Garmin),112˚ 39.933 E,,2009,,0,0,0,1,1,1,0,1,1,0,1,0,1,0,0,1
http://art.vanderbilt.edu/Wuxiang_Dayunsi_Sanfodian,,5,253,59,武乡县大云寺,武乡县大云寺,,,Wuxiang_Dayunsi_Sanfodian,宋至清,山西省武乡县,Wuxiang,,,,Dayunsi Sanfodian,Sanfodian 三佛殿,Sanfodian 三佛殿,,36.9410666,112.6609,36˚ 56.493 N (Garmin),112˚ 39.657 E,,2009,,0,0,0,0,0,1,0,1,1,0,1,,0,,0,1
http://art.vanderbilt.edu/Huixianguan,,5,254,60,会仙观,会仙观,,,Huixianguan,金至清,山西省武乡县,Huixianguan,,,,,Sanqingdian 三清殿,Sanqingdian 三清殿,1115-1234,36.7518166,113.038883,36˚ 45.109' N (Garmin),113˚ 02.333 E,column top xiaang in central bay--seems later than Jin?,2009,,1,0,0,0,0,1,0,1,,0,1,,2,,1,0
http://art.vanderbilt.edu/Taifuguan,,5,243,49,太符观,太符观,,,Taifuguan,金至清,山西省汾阳市,Taifuguan,,,,,Main Hall,,,37.3446111,111.9174667,"37˚ 20' 40.60"" N (google earth-satellite)","111˚ 55' 02.88"" E",,1998,,0,0,0,0,1,1,0,1,？,0,0,0,0,0,1,0
http://art.vanderbilt.edu/Puzhaosi_Dadian,,6,394,97,普照寺大殿,普照寺大殿,,,Puzhaosi_Dadian,金,山西省沁县,Puzhaosi,,,,Dadian,Great Hall Jin dynasty,,,36.7457833,112.653316,36˚ 44.747 N (Garmin)36˚ 44.747 N (Garmin),112˚ 39.199 E,,2009,,0,0,1,0,1,0,0,1,1,0,1,0,1,1,1,1
http://art.vanderbilt.edu/Qinxian_Dayunyuan,,5,244,50,沁县大云院,沁县大云院,,,Qinxian_Dayunyuan,宋至清,山西省沁县,Qinxian,,,,Dayunyuan,Main Hall,,,36.7477,112.5745,36˚ 44.862' N (Garmin),112˚ 34.478' E,,2009,,0,0,0,0,0,1,0,1,1,0,0,0,0,0,1,0
http://art.vanderbilt.edu/Beiyicheng_Yuhuangmiao_Main_Hall,,6,363,66,北义城玉皇庙,北义城玉皇庙,,,Beiyicheng_Yuhuangmiao_Main_Hall,宋至清,山西省泽州县,Beiyicheng,,,,Yuhuangmiao Main Hall,Main Hall 1110,,1110,38.488,112.948133,35˚ 38.488 N (Garmin),112˚ 56.888 E,,2009,,,,,,,,,,,,,,,,,
http://art.vanderbilt.edu/Zhoucun_Dongyuemiao_Main_Hall,,6,364,67,周村东岳庙,周村东岳庙mainhall,,,Zhoucun_Dongyuemiao_Main_Hall,宋至清,山西省泽州县,Zhoucun,,,,Dongyuemiao Main Hall,Main Hall,,,35.47615,112.620216,35˚ 28.569 N (Garmin),112˚ 37.213 E,,2009,,0,0,0,0,0,1,0,1,?,0,1,0,1,0,1,0
http://art.vanderbilt.edu/Zhoucun_Dongyuemiao_East_Hall,,6,364,67,周村东岳庙,周村东岳庙east hall,,,Zhoucun_Dongyuemiao_East_Hall,宋至清,山西省泽州县,Zhoucun,,,,Dongyuemiao East Hall,East Hall,,,35.4762,112.6204833,35˚ 28.572 N (Garmin),112˚ 37.229 E,ang and ang-shaped shuatou are only on corners,,,0,0,0,0,0,1,0,1,,0,1,0,1,1,1,0
http://art.vanderbilt.edu/Zezhou_Daimiao_Tianqidian,,5,263,69,泽州岱庙,泽州岱庙,,,Zezhou_Daimiao_Tianqidian,宋至明,山西省泽州县,Zezhou,,,,Daimiao Tianqidian,,天齐殿,1079,35.41921667,112.7244167,35˚ 25.153' (Garmin),112˚ 43.465',,2010,,,,,,,,,,,,,,,,,
http://art.vanderbilt.edu/Jingzhuang_Dayunsi_Daxiongbaodian,,5,230,36,荆庄大云寺大雄宝殿,荆庄大云寺大雄宝殿,,,Jingzhuang_Dayunsi_Daxiongbaodian,金,山西省浑源县,Jingzhuang,,,,Dayunsi Daxiongbaodian,,,,,,,,,*,,,,,,,,,,,,,,,,,
http://art.vanderbilt.edu/Hutumiao,,6,362,65,狐突庙,狐突庙,,,*Hutumiao,宋至清,山西省清徐县,Hutumiao,,,,,,,,,,,,really song?,1999,,,,,,,,,,,,,,,,,
http://art.vanderbilt.edu/Dongyi_Longwangmiao,,6,378,81,东邑龙王庙,东邑龙王庙,,,Dongyi_Longwangmiao,金至清,山西省潞城市,Dongyi,,,,Longwangmiao,,大殿,1125-1234,36.29381667,113.25975,36˚17.629 (Garmin),113˚ 15.585',"Main Hall Jin, see 中國 文物 地圖集 山西分冊, 中, 240",*,,,,,,,,,,,,,,,,,
http://art.vanderbilt.edu/Yuanqisi,,5,276,82,原起寺,原起寺,,,Yuanqisi,宋,山西省潞城市,Yuanqisi,,,,,,,,36.35326667,113.4258,36˚ 21.196' (Garmin),113˚ 25.548',,2010,,,,,,,,,,,,,,,,,
http://art.vanderbilt.edu/Xingdongyuan_Dongyuemiao,,5,241,47,兴东垣东岳庙,兴东垣东岳庙,,,*Xingdongyuan_Dongyuemiao,金至清,山西省石楼县,Xingdongyuan,,,,Dongyuemiao,,,,,,,,,*,,,,,,,,,,,,,,,,,
http://art.vanderbilt.edu/Guangfansi,,6,367,Ⅲ－70,兴梵寺,兴梵寺,,,Guangfansi,宋,山西省祁县,Guangfansi,,,,,,,,37.39033333,112.4500667,,,"Main Hall Song structure; see: 中國文物地圖集山西分冊, 下, 775 ",*,,,,,,,,,,,,,,,,,
http://art.vanderbilt.edu/Yanshansi,,2,23,8,岩山寺,岩山寺,,,Yanshansi,金,山西省繁峙县,Yanshansi,,,,,,文殊殿 also 南殿,1158,39.22918056,113.6534333,"39˚ 13’ 45.05"" N (google earth)","113˚ 39' 12.36"" E","1158 simple building,single xia'ang, ct and ic the same ",1999,,0,0,0,1,1,1,0,1,1,0,1,0,1,0,1,0
http://art.vanderbilt.edu/Taiyinsi_Daxiongbaodian,,5,260,66,太阴寺,太阴寺,,,Taiyinsi_Daxiongbaodian,金 1170?,山西省绛县,Taiyinsi,,,,Daxiongbaodian,,,,35.49343333,111.6487167,35˚ 29.606' (Garmin),111˚ 38.923',"Daxiongbaodian from Jin repair, see: 中國 文物 地圖集 山西分冊,下,p.1148",2010,,,,,,,,,,,,,,,,,
http://art.vanderbilt.edu/Guangrenwangmiao,,5,248,54,广仁王庙,广仁王庙,,,Guangrenwangmiao,唐,山西省芮城县,Guangrenwangmiao,,,,,,,831,34.73344722,110.677217,"34˚ 44’ 00.41"" N (google earth)","110˚ 40' 37.98"" E",identified with Cui Jinze photo,1997,,0,0,0,0,0,0,1,0,?,0,0,0,0,0,0,1
http://art.vanderbilt.edu/Ruicheng_Chenghuangmiao,,5,249,55,芮城城隍庙,芮城城隍庙,,,*Ruicheng_Chenghuangmiao_芮城城隍庙,北宋至清: Main Hall Song--11th cen?,山西省芮城县,Ruicheng,,,,Chenghuangmiao ?????,,,,,,,,大殿面宽五间，进深三间，单檐歇山顶。前檐柱头斗栱五铺作，双下昂，昂为劈竹式，蚂蚱形耍头,*,,,,,,,,,,,,,,,,,
http://art.vanderbilt.edu/Zhaozewangmiao,,6,395,98,昭泽王庙,昭泽王庙,,,*Zhaozewangmiao,金 大定 27 (1187),山西省襄垣县,Zhaozewangmiao,,,,,,,,,,could not find,,Main Hall from 1187; see: http://www.sxcr.gov.cn/wmsx/show.php?itemid=1128,*,,,,,,,,,,,,,,,,,
http://art.vanderbilt.edu/Fencheng_Gujianzhu,,6,384,87,汾城古建筑群,汾城古建筑群,,,*Fencheng_Gujianzhu,金至清,山西省襄汾县,Fencheng,,,,Gujianzhu,,,,,,,,"not listed separately in 中國 文物 地圖集, unknown which building is Jin",n/a?,,,,,,,,,,,,,,,,,
http://art.vanderbilt.edu/Lingzewangmiao_or_Taiping_Longwangmiao,,6,373,76,灵泽王庙/ 太平龍王廟,灵泽王庙/ 太平龍王廟,,,*Lingzewangmiao_or_Taiping_Longwangmiao,金至清,山西省長治襄垣县,Lingzewangmiao,,,,or Taiping Longwangmiao,,,,,,could not find,,"Also called: 太平龍王廟 Main Hall from 1210; see: 中國 文物 地圖集 山西分冊, 中,278",*,,,,,,,,,,,,,,,,,
http://art.vanderbilt.edu/Faxingsi_Main_Hall,,3,106,54,法兴寺,法兴寺,,,Faxingsi_Main_Hall,唐 (to Qing),山西省长子县,Faxingsi,,,,Main Hall,Main Hall,,1100-1125,35.98437778,112.9065806,"35˚ 59' 03.76"" N (google earth-satellite confirmation)","112˚ 54' 23.69"" E",song elements rebuilt--exclude?,1997?,,0,x,0,0,0,1,1,0,x,0,0,1,2,0,0,1
http://art.vanderbilt.edu/Chongqingsi_1000_Buddha_Hall,,4,98,20,崇庆寺,崇庆寺,,,Chongqingsi_1000_Buddha_Hall,宋,山西省长子县,Chongqingsi,,,,1000 Buddha Hall,l000 Buddhas Hall,,1016,35.98058333,112.9598,35˚58'.835 N (Garmin),"112˚ 57.588"" E ",,"1998, 2010",,0,0,0,0,0,?,1,0,1,0,0,1,1,0,1,0
http://art.vanderbilt.edu/Chongqingsi_Sandashi_Hall,,,,,崇庆寺,,,,Chongqingsi_Sandashi_Hall,,,Chongqingsi,,,,Sandashi Hall,Sandashi Hall,,1079,35.98063333,112.9596333,,,,,,,,,,,,,,,,,,,,,
http://art.vanderbilt.edu/Tianwangsi_Middle_Hall,,6,396,99,天王寺,天王寺,,,Tianwangsi_Middle_Hall,金,山西省长子县 天王寺坐落于长子县城南大街东侧,Tianwangsi,,,,Middle Hall,Middle Hall,,1125-1234,36.11731667,112.8746333,36˚ 7.039' (Garmin),112˚ 52.478',Middle and Back Halls Jin: 现仅存中殿、后殿，有关专家从梁架结构和斗拱构件认证属金代建筑遗存,2010,,http://www.sxcr.gov.cn/wmsx/show.php?itemid=1124,,,,,,,,,,,,,,,
http://art.vanderbilt.edu/Tianwangsi_Back_Hall,,6,396,99,天王寺,天王寺,,,Tianwangsi_Back_Hall,金,山西省长子县 天王寺坐落于长子县城南大街东侧,Tianwangsi,,,,Back Hall,Back Hall,,1125-1234,36.11753333,112.8747333,36˚ 7.052' (Garmin),112˚ 52.484',Middle and Back Halls Jin: 现仅存中殿、后殿，有关专家从梁架结构和斗拱构件认证属金代建筑遗存,2010,,http://www.sxcr.gov.cn/wmsx/show.php?itemid=1124,,,,,,,,,,,,,,,
http://art.vanderbilt.edu/Zhengjuesi,,5,228,34,正觉寺,正觉寺,,,*Zhengjuesi,金至明,山西省长治县,Zhengjuesi,,,,,,,,,,,,,1997,,0,0,0,0,0,1,0,1,?,0,1,0,1,1,0,1
http://art.vanderbilt.edu/Xiajiao_Tangdimiao_Offering_Hall,,6,357,60,下交汤帝庙,下交汤帝庙,,,Xiajiao_Tangdimiao_Offering_Hall,宋至清,山西省阳城县,Xiajiao,,,,Tangdimiao Offering Hall,"Offering Hall, Stage Jin ",,1213,35.41436667,112.3568333,35˚ 24.862,112˚ 21.410,offering hall originally a stage from Jin dynasty,2010,,,,,,,,,,,,,,,,,
http://art.vanderbilt.edu/Kaifusi_Offering_Hall,,6,371,74,开福寺,开福寺,,,Kaifusi_Offering_Hall,金至明,山西省阳城县,Kaifusi,,,,Offering Hall,Offering Hall,,1161-1190,35.4803,112.4226,35˚ 28.818' (Garmin),112˚ 25.356',"Offering Hall is Jin Dading period (1161-1190) see: 中國 文物 地圖集 山西分冊, 中, 500 ",*,,,,,,,,,,,,,,,,,
http://art.vanderbilt.edu/Runcheng_Dongyuemiao_or_Tuncheng_Dongyuemiao,,6,375,78,润城东岳庙/屯城東岳廟,润城东岳庙/屯城東岳廟,,,Runcheng_Dongyuemiao_or_Tuncheng_Dongyuemiao,金至清,山西省阳城县,Runcheng,,,,Dongyuemiao or Tuncheng Dongyuemiao,Tianjidian,,1199-1208,35.55121667,112.5350833,35˚ 33.084' (Garmin),112˚ 32.111',"天齊殿from Jin 1199-1208, see: 中國 文物 地圖集 山西分冊, 中, 500/天齊殿from Jin 1199-1208, see: 中國 文物 地圖集 山西分冊, 中, 500/天齊殿from Jin 1199-1208, see: 中國 文物 地圖集 山西分冊, 中, 500/天齊殿from Jin 1199-1208, see: 中國 文物 地圖集 山西分冊, 中, 500/",*,,,,,,,,,,,,,,,,,
http://art.vanderbilt.edu/Buersi,,6,397,100,不二寺,不二寺,,,Buersi,金,山西省阳曲县,Buersi,,,,,Main Hall: Moved from original location,,,38.0510217,112.6602917,"38˚ 03' 06.13"" N (google earth-satellite confirm)","112˚ 39' 37.05"" E",,1998,,0,0,0,1,1,1,0,1,1,0,1,0,1,0,0,1
http://art.vanderbilt.edu/Guanwangmiao,,4,99,21,关王庙,关王庙,,,Guanwangmiao,宋,山西省阳泉市,Guanwangmiao,,,,,,,,37.92066667,113.6196667,37˚ 55.24' N (Magellan-could not verify w/ satellite),113˚ 37.18 E,"only angled bracket arms are bevelled, not linggong",2001,,1,0,1,0,1,1,0,1,?,0,0,0,0,0,0,1
http://art.vanderbilt.edu/Yuquan_Dongyuemiao,,6,376,79,玉泉东岳庙,玉泉东岳庙,,,Yuquan_Dongyuemiao,金至清,山西省陵川县附城镇,Yuquan,,,,Dongyuemiao,"complex locked, measured back of hall",,,35.68258333,113.19005,35˚ 40.955 (Garmin),113˚ 11.403,"Main Hall and East Ear hall (耳殿) Jin, see 中國 文物 地圖集 山西分冊, 中, 513",2010,,,,,,,,,,,,,,,,,
http://art.vanderbilt.edu/Shizhang_Yuhuangmiao,,6,377,80,石掌玉皇庙,石掌玉皇庙,,,Shizhang_Yuhuangmiao,金至清,山西省陵川县,Shizhang,,,,Yuhuangmiao,,,,35.7257,113.33805,35˚ 43.542' (Garmin),113˚ 20.288',"Main Hall Jin, see 中國 文物 地圖集 山西分冊, 中, 513-514",*,,,,,,,,,,,,,,,,,
http://art.vanderbilt.edu/Baiyugong,,6,386,89,白玉宫,白玉宫,,,Baiyugong,金至清,山西省陵川县,Baiyugong,,,,,,,1212,35.65815,113.2410667,35˚ 39.489',113˚ 14.464',"Main Hall from 1212 see: 中國 文物 地圖集, 中, 513",2010,,,,,,,,,,,,,,,,,
http://art.vanderbilt.edu/Longyansi,,5,229,35,龙岩寺,龙岩寺,,,*Longyansi,金、明,山西省陵川县,Longyansi,,,,,,,,,,,,,*,,,,,,,,,,,,,,,,,
http://art.vanderbilt.edu/Xiaohuiling_Erxianmiao,,5,265,71,小会岭二仙庙,小会岭二仙庙,,,Xiaohuiling_Erxianmiao,北宋至清,山西省陵川县,Xiaohuiling,,,,Erxianmiao,,,,35.67861667,113.1687333,35˚ 40.717' N (Garmin),113˚ 10.124' E,,2010,,,,,,,,,,,,,,,,,
http://art.vanderbilt.edu/Lingchuan_Cuifujunmiao,,5,266,72,崔府君庙,崔府君庙,,,Lingchuan_Cuifujunmiao,金至清,山西省陵川县,Lingchuan,,,,Cuifujunmiao,Shanmen Jin,,1125-1234,35.79946667,113.1166,35˚ 47.968 N,113˚ 06.996 E,,2009,,0,0,0,0,0,1,1,0,1,0,0,1,1,1,1,0
http://art.vanderbilt.edu/Xixi_Erxianmiao,,5,267,73,西溪二仙庙,西溪二仙庙后殿,,,Xixi_Erxianmiao,金至清,山西省陵川县,Xixi,,,,Erxianmiao,Back Hall Jin,,,35.7605,113.2553333,35˚ 45.63 N,113˚ 15.32 E,,2004,,0,0,0,1,2,1,0,1,1,0,1,0,2,0,0,1
http://art.vanderbilt.edu/Sirun_Sanjiaotang,,6,391,94,寺润三教堂,寺润三教堂,,,Sirun_Sanjiaotang,金,山西省陵川县; 陵川县杨村镇寺润村,Sirun,,,,Sanjiaotang,Main Hall,,,35.83021667,113.18035,35˚ 49.813',113˚ 10.821,"Main Hall Jin, see: http://www.sxcr.gov.cn/wmsx/show.php?itemid=1007",2010,,,,,,,,,,,,,,,,,
http://art.vanderbilt.edu/Nanshentou_Erxianmiao,,6,390,93,南神头二仙庙,南神头二仙庙,,,Nanshentou_Erxianmiao,金至清,山西省陵川县; 陵川县潞城镇石圪峦村,Nanshentou,,,,Erxianmiao,Main Hall,,,35.69555,113.35965,35˚ 41.733',113˚ 21.579',Main Hall from Jin; see: http://www.huaxia.com/zhsx/sxsy/wwzy/12/1256259.html,2010,,,,,,,,,,,,,,,,,
http://art.vanderbilt.edu/Nanjixiangsi_Middle_Hall,,,,,南吉祥寺,南吉祥寺,,,Nanjixiangsi_Middle_Hall,宋－清,山西省陵川县平川,Nanjixiangsi,,,,Middle Hall,Middle Hall,,1030,35.77675,113.12075,35˚ 46' 33.36' N  (google earth-fuzzy satellite),"113˚ 7' 15.40"" E",,1998,,0,0,1,0,1,1,1,0,1,1,0,0,1,1,1,0
http://art.vanderbilt.edu/Beijixiangsi_Tianwangdian,,4,101,23,北吉祥寺,北吉祥寺天王殿,,,Beijixiangsi_Tianwangdian,宋－清,山西省陵川县禮義,Beijixiangsi,,,,Tianwangdian,Tianwangdian (or Front Hall),,,35.79754167,113.1118472,"35˚ 47' 50.68"" N (google earth-Cui Jinze and fuzzy sat.)","113˚ 06' 42.50"" E",could these xiaang have been recarved?,1998,,0,0,0,0,0,1,0,1,1,0,1,0,1,1,1,0
http://art.vanderbilt.edu/Beijinxiangsi_Middle_Hall,,4,101,23,北吉祥寺,北吉祥寺中点,,,Beijinxiangsi_Middle_Hall,宋－清,山西省陵川县禮義,Beijinxiangsi,,,,Middle Hall,Middle Hall,,,35.79782778,113.1118667,"35˚ 47' 51.88"" N (google earth-Cui Jinze and fuzzy sat.)","113˚ 06' 42.67"" E",nidaogong chamfered--did not include,,,0,0,0,0,0,1,0,1,1,0,1,0,2,0,1,0
http://art.vanderbilt.edu/Yangquan_Dawangmiao,,5,255,61,大王庙,大王庙,,,*Yangquan_Dawangmiao,金至明,山西省陽泉市盂县,Yangquan,,,,Dawangmiao,,,,,,,,寢宮from Jin--1172? Ic brackets have xiegong,*,,,,,,,,,,,,,,,,,
http://art.vanderbilt.edu/Youxiansi_Front_Hall,,5,270,76,游仙寺,游仙寺 Front Hall,,,Youxiansi_Front_Hall,北宋至清,山西省高平市,Youxiansi,,,,Front Hall,Middle Hall Jin,,,35.74008889,112.929389,"35˚ 44' 25.08"" N (google earth-satellite confirm)","112˚ 55' 45.86"" E",,,,0,0,0,0,1,1,1,0,1,0,0,1,1,1,1,0
http://art.vanderbilt.edu/Youxiansi_Middle_Hall,,5,270,76,游仙寺,游仙寺 中殿,,,Youxiansi_Middle_Hall,北宋至清,山西省高平市,Youxiansi,,,,Middle Hall,Back Hall Jin/Yuan,,,35.74030278,112.9294028,"35˚ 44' 25.96"" N (google earth-satellite confirm)","112˚ 55' 45.98"" E",linggong beveled mangong chamfered,,,0,0,0,1,1,1,0,1,？,0,1,0,1,0,1,1
http://art.vanderbilt.edu/Xilimen_Erxianmiao_Middle_Hall,,6,374,77,西李门二仙庙,西李门二仙庙,,,Xilimen_Erxianmiao_Middle_Hall,金至清,山西省高平市,Xilimen,,,,Erxianmiao Middle Hall,Middle Hall Jin (1157),,,35.7030833,112.9776,35˚ 42.185' N (Garmin),112˚ 58.656' E,,2009,,0,0,0,0,1,1,0,1,1,0,1,0,2,0,0,1
http://art.vanderbilt.edu/Xilimen_Erxianmiao_Back_Hall,,6,374,77,西李门二仙庙,西李门二仙庙,,,Xilimen_Erxianmiao_Back_Hall,金至清,山西省高平市,Xilimen,,,,Erxianmiao Back Hall,Back Hall Jin with extensive repairs,,,35.7032333,112.977666,35˚ 42.194' N (Garmin),112˚ 58.660' E,,2009,,0,0,0,0,1,1,0,1,?,0,1,0,1,0,0,1
http://art.vanderbilt.edu/Zhongping_Erxiangong_Shanmen,,6,382,85,中坪二仙宫,中坪二仙宫,,,Zhongping_Erxiangong_Shanmen,金至清,山西省高平市,Zhongping,,,,Erxiangong Shanmen,Shanmen (Jin dynasty),,,35.8059,113.07,35˚ 48.354 N (Garmin),113˚ 04.200' E,this building looks later--yuan?,2009,,0,0,0,0,1,1,0,1,?,0,1,0,2,0,1,0
http://art.vanderbilt.edu/Zhongping_Erxiangong_Main_Hall,,,,,中坪二仙宫,中坪二仙宫,,,Zhongping_Erxiangong_Main_Hall,金至清,山西省高平市,Zhongping,,,,Erxiangong Main Hall,Main Hall-Jin with Yuan repairs,,,35.8061166,113.069833,35˚ 48.367 N (Garmin),113˚ 04.190' E,,,,0,0,0,0,1,1,0,1,1,0,1,0,1,0,0,1
http://art.vanderbilt.edu/Erlangmiao,,6,387,90,二郞庙,二郞庙,,,Erlangmiao,金至清,山西省高平市,Erlangmiao,,,,,Stage Jin dynasty,,,35.86535,112.8704,35˚ 51.921 N (Garmin),112˚ l51.224 E,earliest stage,2009,,0,0,0,0,2,?,0,1,0,0,1,0,1,1,0,?
http://art.vanderbilt.edu/Chongmingsi_Middle_Hall,,5,268,74,崇明寺,崇明寺,,,Chongmingsi_Middle_Hall,北宋至明,山西省高平市,Chongmingsi,,,,Middle Hall,Middle Hall 10th century,,,35.71439722,113.0084611,"35˚ 42' 51.83"" N (google earth-satellite confirm)","113' 00' 30.46"" E",,1998,,0,0,0,0,1,0,1,0,?,1,0,0,2,0,0,1
http://art.vanderbilt.edu/Kaihuasi,,5,269,75,开化寺,开化寺,,,Kaihuasi,北宋至清,山西省高平市,Kaihuasi,,,,,Daxiongbaodian,,,35.87018611,113.0370944,"35˚ 52' 12.67"" N (google earth-satellite confirm)","113˚ 02' 13.54"" E",,1997,,0,0,0,0,0,1,0,1,?,0,0,1,1,1,1,0
http://art.vanderbilt.edu/Meian,,4,109,31,梅庵,梅庵,,,*Meian,北宋 996?,广东省肇庆市,Meian,,,,,,,996,,,,,"Zushidian thought to retain Song style (ZGMSCD, 842)",*,,,,,,,,,,,,,,,,,
http://art.vanderbilt.edu/Nantong_Tianningsi,,6,510,Ⅲ－213,南通天宁寺,南通天宁寺,,,*Nantong_Tianningsi,宋,江苏省南通市,Nantong,,,,Tianningsi,,,,,,,,Song-Yuan style; see: ZGMSCD 320,n/a?,,,,,,,,,,,,,,,,,
http://art.vanderbilt.edu/Suzhou_Xuanmiaoguan_Sanqingdian,,2,22,7,玄妙观三清殿,玄妙观三清殿,,,Suzhou_Xuanmiaoguan_Sanqingdian,宋,江苏省苏州市,Suzhou,,,,Xuanmiaoguan Sanqingdian,Sanqingdian 三清殿,Sanqingdian 三清殿,1179,31.31431667,120.6216666,31˚ 18.895' N (Garmin),120˚ 37.307' E,large-scale Song building,2009,for date see: zgmscd 489,0,0,0,1,2?,?,1,0,?,0,1,0,2,0,0,1
http://art.vanderbilt.edu/Yuanzhou Qiaolou,,6,606,309,袁州谯楼,袁州谯楼,,,*Yuanzhou Qiaolou,宋至清 袁州譙樓建於南宋嘉定十二年(西元１２１９年),江西省宜春市,Yuanzhou Qiaolou,,,,,,,,,,,,earliest observatory; see: http://big5.china.com.cn/overseas/txt/2004-12/09/content_5724640.htm,n/a,,,,,,,,,,,,,,,,,
http://art.vanderbilt.edu/Kaiyuansi_Zhonglou,,3,105,53,开元寺钟楼,开元寺钟楼,,,*Kaiyuansi_Zhonglou,唐至清,河北省正定县,Kaiyuansi,,,,Zhonglou,Bell Tower,,898,,,38˚ 08.39' N (Magellan),114˚ 33.94' E,tang first floor--compare to Wenmiao?,1999,for date see: zgmscd 104,n/a,,,,,,,,,,,,,,,
http://art.vanderbilt.edu/Zhengding_Wenmiao_Dachengdian,,4,91,13,正定文庙大成殿,正定文庙大成殿,,,Zhengding_Wenmiao_Dachengdian,五代,河北省正定县,Zhengding,,,,Wenmiao Dachengdian,,,907-960,38.14383333,114.561,38˚ 08.63' N (Magellan),114˚ 33.66' E,,1999,,0,0,0,0,0,0,1,0,?,0,0,0,0,0,0,?
http://art.vanderbilt.edu/Longxingsi_Tianwangdian,,1,89,42,隆兴寺,隆兴寺山门,,,Longxingsi_Tianwangdian,initially built 586; now 宋 10th-11th century,河北省正定县,Longxingsi,,,,Tianwangdian,,天王殿,982,38.14109167,114.5763528,38˚ 08' 27.97' N (google earth 9/2009),"114˚ 34' 34.88"" E",late 10th century (982?); modified in 1780. Early mojiao gong similar to Dulesi,1999?,zgmscd 105-106,1,0,0,0,0,0,1,0,1,0,0,0,0,0,1,0
http://art.vanderbilt.edu/Longxingsi_Monidian,,1,89,42,隆兴寺,隆兴寺摩尼殿,,,Longxingsi_Monidian,initially built 586; now 宋 10th-11th century,河北省正定县,Longxingsi,,,,Monidian,,摩尼殿,1052,38.14256944,114.5762444,"38˚ 08' 33.25"" N (google earth 9/2009)","114˚ 34' 34.48"" E",1052 with angled bracket arms; qinmian ang appears to be recarved,,,1,1,1,0,1,1,1,1,1,0,1,1,1,1,1,1
http://art.vanderbilt.edu/Longxingsi_Revolving_Sutra_Repository,,1,89,42,隆兴寺,隆兴寺轉論藏閣,,,Longxingsi_Revolving_Sutra_Repository,initially built 586; now 宋 10th-11th century,河北省正定县,Longxingsi,,,,Revolving Sutra Repository,,轉論藏閣,1050-1100,38.14345556,114.5761833,"38˚ 08' 36.44"" N (google earth 9/2009)","114˚ 34' 34.26"" E",upper eaves bracket sets;,,2nd half of 11th century; see Qi Yingtao,0,0,0,1?,2,1,0,1,1,0,0,1,1,1,0,1
http://art.vanderbilt.edu/Longxingsi_Maitreya_Pavilion,,1,89,42,隆兴寺,隆兴寺慈氏閣,,,Longxingsi_Maitreya_Pavilion,initially built 586; now 宋 10th-11th century,河北省正定县,Longxingsi,,,,Maitreya Pavilion,,慈氏閣,1050-1100,38.14363611,114.5765111,"38˚ 08' 37.09"" N (google earth 9/2009)","144˚ 34' 35.47"" E",upper eaves bracket sets,,2nd half of 11th century; see Qi Yingtao,0,0,0,1?,2,1,0,1,?,0,0,1,2,0,0,1
http://art.vanderbilt.edu/Geyuansi,,4,95,17,阁院寺 977?,阁院寺 977?,,,Geyuansi,辽,河北省涞源县,Geyuansi,,,,,,文殊殿,977,39.353,114.681833,39˚ 21.18' N (Magellan),114˚ 40.91' E,Liao building with mojiaogong but no fan brackets; cloud bracket arms make it jixin,1999,,0,1,0,0,?,1,0,1,1,0,0,0,0,0,0,1
http://art.vanderbilt.edu/Dulesi_Shanmen,,1,84,37,独乐寺,独乐寺,,,Dulesi_Shanmen,辽,河北省蓟县,Dulesi,,,,Shanmen,,觀音閣,984,40.0438,117.3966833,40˚ 02.645' N (Garmin),117˚ 23.800' N,984,2008,,0,1,0,0,1,0,1,0,1,0,0,0,0,0,0,1
http://art.vanderbilt.edu/Dulesi_Guanyinge,,1,84,37,独乐寺,独乐寺,,,Dulesi_Guanyinge,辽,河北省蓟县,Dulesi,,,,Guanyinge,,山門,984,40.04408333,117.3966666,40˚ 02.628' N (Garmin),117˚ 23.801' E,984,2008,,0,1,0,0,1,0,1,0,1,1,0,0,2,0,0,1
http://art.vanderbilt.edu/Chengtangmiao_Shanmen,,6,327,30,成汤庙山门,成汤庙山门,,,*Chengtangmiao_Shanmen,金 1164,河北省邯鄲涉县,Chengtangmiao,,,,Shanmen,,,,,,,,http://www.gutrip.com/html/yuyin/hebei/handan/2009/0313/3901.html,*,,,,,,,,,,,,,,,,,
http://art.vanderbilt.edu/Kaishansi_Main_Hall,,4,96,18,开善寺,开善寺,,,Kaishansi_Main_Hall,辽,河北省高碑店市,Kaishansi,,,,Main Hall,Main Hall,,,39.2470666,115.9872,39˚ 14.824' N (Garmin),115˚ 59.232' E,"Liao building with mojiaogong, again no fan brackets",2009,,0,1,0,0,0,1,0,1,1,0,0,0,0,0,0,1
http://art.vanderbilt.edu/Liangcheng_guli,,6,627,330,两程故里,两程故里,,,*Liangcheng_guli,宋至明,河南省嵩县,Liangcheng,,,,guli,,,,,,,,first built in 1131?; rebuilt in the Yuan; expanded in the Ming,n/a,,,,,,,,,,,,,,,,,
http://art.vanderbilt.edu/Jidumiao_Qingong,,4,107,29,济渎庙,济渎庙,,,Jidumiao_Qingong,宋－清,河南省济源市,Jidumiao,,,,Qingong,,寢宮,960-1000,35.1095333,112.576583,35˚ 06.572' N (Garmin),112˚ 34.595' E,qinmian style youang,2009,,0,0,0,1,1,1,1,0,1,0,?,0,0,0,0,1
http://art.vanderbilt.edu/Shaolinsi_Chuzuan,,4,89,11,少林寺初祖庵,少林寺初祖庵,,,Shaolinsi_Chuzuan,宋,河南省登封市,Shaolinsi,,,,Chuzuan,,,1125,34.50950278,112.9291167,"34˚ 30'34.21"" (google earth 7/5/2010)","112˚ 55' 44.82""","1125-contrast with Fengxianguan in Jiyuan, Henan as representing YZFS",1998?,,0,0,0,1,2,0,0,1,1,0,1,0,1,0,0,1
http://art.vanderbilt.edu/Baoguosi,,1,90,43,保国寺,保国寺,,,Baoguosi_保国寺,北宋 1013,浙江省宁波市,Baoguosi,,,,???,,大雄寶殿,1013,29.983,121.516833,29˚ 58.98' N  (Magellan),"121˚ 31.01' E (Magellan) 121˚ 30' 57.99"" E (google earth)",early 11th cen. Example of style in YZFS,1999,,0,0,0,1,2,0,1,0,1,0,1,0,2,0,0,1
http://art.vanderbilt.edu/Zhangye_Dafosi,,4,112,34,张掖大佛寺,张掖大佛寺,,,*Zhangye_Dafosi,西夏、清 ? Foundation Xixia?,甘肃省张掖市,Zhangye,,,,Dafosi,,,,,,,,,*?,,,,,,,,,,,,,,,,,
http://art.vanderbilt.edu/Hualinsi_Dadian,,2,19,4,华林寺大殿,华林寺大殿,,,Hualinsi_Dadian,宋,福建省福州市,Hualinsi,,,,Dadian,Main Hall,,964,26.103525,119.291925,"26˚ 06' 12.69"" N (google earth 9/2009)","119˚ 17' 30.93"" E ","rebuilt in new location, but has Dafoyang elements from 10th century",2004,for date see: zgmscd 471,0,0,0,1,2,0,1,0,1,0,0,0,3,1,0,1
http://art.vanderbilt.edu/Putian_Yuanmiaoguan_Sanqingdian,,4,103,25,元妙观三清殿,元妙观三清殿,,,Putian_Yuanmiaoguan_Sanqingdian,宋,福建省莆田市,Putian,,,,Yuanmiaoguan Sanqingdian,,,1015,25.4333333,119.018666,"25˚ 26' N (Magellan, no satellite confirm)",119˚ 01.12 E,,2004,,0,0,0,1,1,0,1,0,?,0,?,0,3,1,0,1
http://art.vanderbilt.edu/Fengguosi_Daxiongdian,,1,86,39,奉国寺,奉国寺,,,Fengguosi_Daxiongdian,辽 1020,辽宁省义县,Fengguosi,,,,Daxiongdian,,大雄殿 also 大雄寶殿,1020,41.5430333,121.2424167,41˚ 32.582' N (Garmin),121˚ 14.545' E,"Daxiongdian: 開 泰 九 年 正 月 十 四 起 工 (Feb. 10, 1020) ",2008,,0,0,0,1?,1,1,1,0,1,1,0,0,2,0,0,1
http://art.vanderbilt.edu/Zhaorensi_Dadian,,3,109,57,昭仁寺大殿,昭仁寺大殿,,,*Zhaorensi_Dadian,唐,陕西省长武县,Zhaorensi,,,,Dadian,Main Hall Tang?,,618-907,,,"35˚ 12' 15.89"" N  found on google earth, no satellite ","107˚ 47' 50.63"" E ","date of main hall not listed in ZGMSCD, p. 1026,--Tang?",*,,,,,,,,,,,,,,,,,
http://art.vanderbilt.edu/Fawangmiao,,6,779,482,法王庙,法王庙,,,*Fawangmiao,宋至清,陕西省韩城市,Fawangmiao,,,,,,,,,,,,Yuan-style back offering hall; see: http://www.hancheng.gov.cn/hcly/view.aspx?id=6302,n/a?,,,,,,,,,,,,,,,,,
http://art.vanderbilt.edu/Gesaer_30_Great_Generals_pagodas,,6,805,508,格萨尔三十大将军灵塔和达那寺,格萨尔三十大将军灵塔和达那寺,,,*Gesa'er 30 Great General's pagodas,宋、元,青海省囊谦县,,,,,Gesa'er 30 Great General's pagodas,,,,,,,,uncertain date of individual buildings,n/a?,,,,,,,,,,,,,,,,,
http://art.vanderbilt.edu/Bucun_Yuhuangmiao_Front_Hall,,,,,布村玉皇庙,,,,Bucun_Yuhuangmiao_Front_Hall,五代，金,长子布村,Bucun,,,,Yuhuangmiao Front Hall,Front Hall,,907-960,36.0078,112.9334667,36˚ 00.468' (Garmin),112˚ 56.008',Five Dynasties?,2010,,,,,,,,,,,,,,,,,
http://art.vanderbilt.edu/Bucun_Yuhuangmiao_Back_Hall,,,,,布村玉皇庙,,,,Bucun_Yuhuangmiao_Back_Hall,五代，金,长子布村,Bucun,,,,Yuhuangmiao Back Hall,Back Hall,,1125-1234,36.00795,112.9334667,36˚ 00.468' (Garmin),112˚ 56.008,Jin,2010,,,,,,,,,,,,,,,,,
http://art.vanderbilt.edu/Xiaozhangcun_Biyunsi,,,,,小张村碧云寺,,,,Xiaozhangcun_Biyunsi,五代,长子小张存,Xiaozhangcun,,,,Biyunsi,,,,36.17146667,112.8389833,,,,2010,,,,,,,,,,,,,,,,,
http://art.vanderbilt.edu/Chongjiaosi_Zhengdian,,,,,崇教寺正殿,,,,Chongjiaosi_Zhengdian,宋金,长治市马厂镇故驿村,Chongjiaosi,,,,Zhengdian,Main Hall Song?,,978-1125,36.34316667,113.11315,36˚ 20.590',113˚ 06.789',bracketing looks Jin,2010,,,,,,,,,,,,,,,,,
http://art.vanderbilt.edu/Zhangzi_Fujunmiao,,,,,长子县府君庙,,,,Zhangzi_Fujunmiao,,长子县城第一中学院,Zhangzi,,,,Fujunmiao,,宋-明,,36.11985,112.8771667,36˚ 07. 191',112˚ 52.630',Song? But renovated in Ming,2010,,,,,,,,,,,,,,,,,
http://art.vanderbilt.edu/Qinshui_Cuifujunmiao_Fujundian,,,,,沁水崔府君庙,,,,Qinshui_Cuifujunmiao_Fujundian,金元,沁水县加丰镇郭南村,Qinshui,,,,Cuifujunmiao Fujundian,Fujundian Jin,,1125-1234,35.63165,112.5239667,35˚ 37.899' (Garmin),112˚ 31.438,,2010,,,,,,,,,,,,,,,,,
http://art.vanderbilt.edu/Langbi_Shengtiansi,,,,,圣天寺,,,,Langbi_Shengtiansi,宋,沁水郑庄廊必村,Langbi,,,,Shengtiansi,Main Hall,,960-1125,35.76526667,112.3737333,35˚ 45.916' (Garmin),112˚ 22.424',,2010,,,,,,,,,,,,,,,,,
http://art.vanderbilt.edu/Qinshui_Longyansi_Shanmen,,,,,沁水龙岩寺,,,,Qinshui_Longyansi_Shanmen,金,,Qinshui,,,,Longyansi Shanmen,Shanmen,,1125-1234,35.60273333,111.97115,35˚ 36.164' (Garmin),111˚ 97.115',,,,,,,,,,,,,,,,,,,
http://art.vanderbilt.edu/Qinshui_Shundimiao_Dadian,,,,,沁水舜帝庙,,,,Qinshui_Shundimiao_Dadian,金,,Qinshui,,,,Shundimiao Dadian,Main Hall,,1125-1234,35.60493333,111.97245,35˚ 36.296' (Garmin),111˚ 58.347,,,,,,,,,,,,,,,,,,,
http://art.vanderbilt.edu/Quwo_Dabeiyuan_Guodian,,,,,曲沃大悲院过殿,,,,Quwo_Dabeiyuan_Guodian,金,曲沃县曲村镇曲村中,Quwo,,,,Dabeiyuan Guodian,Guodian,,1180,35.73436667,111.5450667,35˚ 44。062,111˚ 32.704',,,,,,,,,,,,,,,,,,,
http://art.vanderbilt.edu/Qixian_Xingfansi,,,,,Qixian_Xiangfansi,,,,Qixian_Xingfansi,宋,祁县东观镇中学里面,Qixian,,,,Xingfansi,Zhengdian,,960-1125,37.39033333,112.4500667,37˚ 23.420' (Garmin),112˚ 27.004',,,,,,,,,,,,,,,,,,,
http://art.vanderbilt.edu/Guanghuasi,,,,,,,,,Guanghuasi,,,Guanghuasi,,,,,,,,37.36166667,112.4942,,,,,,,,,,,,,,,,,,,,,